City_ID,City,Country,Lat,Lng,Max Temp,Humidity,Cloudiness,Wind Speed,Current Description
0,Bredasdorp,ZA,-34.53,20.04,48.2,93,0,5.82,clear sky
1,Berlevag,NO,70.86,29.09,55.94,86,95,14.34,overcast clouds
2,Longyearbyen,SJ,78.22,15.64,44.6,93,75,4.7,broken clouds
3,Vao,NC,-22.67,167.48,66.56,69,100,18.99,overcast clouds
4,Puerto Ayora,EC,-0.74,-90.35,68.0,88,87,5.99,overcast clouds
5,Bilma,NE,18.69,12.92,92.21,32,0,7.47,clear sky
6,Punta Arenas,CL,-53.15,-70.92,41.0,86,75,6.93,broken clouds
7,Rikitea,PF,-23.12,-134.97,72.05,82,31,11.99,scattered clouds
8,Kapaa,US,22.08,-159.32,84.2,66,90,12.75,overcast clouds
9,Xinyang,CN,32.12,114.07,75.51,70,36,4.18,scattered clouds
10,Qaanaaq,GL,77.48,-69.36,23.32,82,0,6.62,clear sky
11,Ushuaia,AR,-54.8,-68.3,39.2,80,75,2.24,broken clouds
12,Lebu,CL,-37.62,-73.65,47.07,73,88,4.36,overcast clouds
13,Cape Town,ZA,-33.93,18.42,57.0,93,20,8.05,few clouds
14,Severo-Kurilsk,RU,50.68,156.12,54.97,68,85,4.81,overcast clouds
15,Raychikhinsk,RU,49.78,129.41,62.62,74,100,20.67,overcast clouds
16,Aklavik,CA,68.22,-135.01,51.8,66,75,6.93,broken clouds
17,Marzuq,YE,14.4,46.47,79.14,42,26,2.68,scattered clouds
18,Arlit,NE,18.74,7.39,93.88,32,34,9.26,scattered clouds
19,Zunheboto,IN,25.97,94.52,62.55,100,38,1.77,scattered clouds
20,Kamenka,RU,51.32,42.77,51.01,66,100,9.22,overcast clouds
21,Dikson,RU,73.51,80.55,42.19,88,100,12.33,overcast clouds
22,Asau,RO,46.43,26.4,53.01,92,0,4.74,light rain
23,Akdepe,TM,42.06,59.38,62.6,48,27,6.93,scattered clouds
24,Lavrentiya,RU,65.58,-171.0,43.45,70,98,6.91,overcast clouds
25,Port Alfred,ZA,-33.59,26.89,63.46,74,0,22.24,clear sky
26,Eydhafushi,MV,5.1,73.07,82.02,78,95,19.53,overcast clouds
27,Turek,PL,52.02,18.5,61.0,94,60,1.99,broken clouds
28,Coos Bay,US,43.37,-124.22,66.2,68,20,8.05,few clouds
29,Mataura,NZ,-46.19,168.86,57.04,50,0,8.57,light rain
30,Korla,CN,41.76,86.15,72.0,49,0,6.49,clear sky
31,Los Llanos De Aridane,ES,28.66,-17.92,75.2,78,90,9.17,overcast clouds
32,Souillac,MU,-20.52,57.52,66.2,82,40,11.41,scattered clouds
33,Katangli,RU,51.71,143.23,68.67,77,49,6.4,scattered clouds
34,Namatanai,PG,-3.67,152.43,84.02,71,97,9.08,moderate rain
35,Georgetown,MY,5.41,100.34,77.0,94,20,3.36,mist
36,La Ronge,CA,55.1,-105.28,60.8,55,75,8.05,broken clouds
37,Bosobolo,CD,4.18,19.9,70.05,94,78,2.59,light rain
38,Mar Del Plata,AR,-38.0,-57.56,50.0,71,44,4.7,scattered clouds
39,Jamestown,US,42.1,-79.24,64.0,63,20,10.29,few clouds
40,Havelock,US,34.88,-76.9,86.0,78,1,1.99,clear sky
41,Fortuna,US,40.6,-124.16,72.0,53,1,14.99,clear sky
42,Quelimane,MZ,-17.88,36.89,67.64,80,32,6.46,light rain
43,Hilo,US,19.73,-155.09,87.8,52,20,11.41,few clouds
44,Hermanus,ZA,-34.42,19.23,55.0,75,1,9.64,clear sky
45,Tuktoyaktuk,CA,69.45,-133.04,42.8,70,75,10.29,broken clouds
46,Albany,US,42.6,-73.97,72.0,55,3,4.92,clear sky
47,Roswell,US,34.02,-84.36,88.0,58,1,6.93,clear sky
48,Hambantota,LK,6.12,81.12,79.86,82,57,12.73,broken clouds
49,Tomakomai,JP,42.64,141.6,73.99,100,75,5.82,broken clouds
50,Torbay,CA,47.67,-52.73,64.99,100,40,17.22,scattered clouds
51,Busselton,AU,-33.65,115.33,60.01,91,60,13.82,broken clouds
52,Ballymena,GB,54.86,-6.28,52.0,87,20,17.22,few clouds
53,Butaritari,KI,3.07,172.79,82.92,73,64,11.1,broken clouds
54,Lasa,IT,46.62,10.7,57.0,93,5,2.42,clear sky
55,Yellowknife,CA,62.46,-114.35,57.0,54,20,8.05,few clouds
56,Kutum,SD,14.2,24.67,74.26,68,54,13.47,broken clouds
57,Sovetsk,RU,55.08,21.88,54.09,94,88,7.11,overcast clouds
58,Yulara,AU,-25.24,130.99,64.4,27,0,11.41,clear sky
59,Atuona,PF,-9.8,-139.03,78.3,77,28,21.97,scattered clouds
60,Mayor Pablo Lagerenza,PY,-19.93,-60.77,82.22,31,66,3.83,broken clouds
61,Airai,TL,-8.93,125.41,70.77,39,0,3.83,clear sky
62,Kyren,RU,51.68,102.14,58.87,70,95,0.22,overcast clouds
63,Provideniya,RU,64.38,-173.3,42.85,71,52,4.56,broken clouds
64,Nizhniy Tsasuchey,RU,50.52,115.13,54.64,84,100,12.48,overcast clouds
65,Cherskiy,RU,68.75,161.3,45.19,58,14,7.0,few clouds
66,Barrow,US,71.29,-156.79,39.2,93,90,5.82,overcast clouds
67,Kikwit,CD,-5.04,18.82,78.62,53,64,2.28,broken clouds
68,Minab,IR,27.15,57.08,78.8,27,0,1.52,clear sky
69,Jorhat,IN,26.75,94.22,76.46,94,83,2.71,broken clouds
70,Benguela,AO,-12.58,13.41,69.06,83,26,3.91,scattered clouds
71,Chuy,UY,-33.7,-53.46,50.95,91,83,5.46,broken clouds
72,Pevek,RU,69.7,170.31,36.05,83,90,2.26,overcast clouds
73,Whitehorse,CA,60.72,-135.05,55.99,40,75,2.24,broken clouds
74,Avarua,CK,-21.21,-159.78,78.8,83,0,11.41,clear sky
75,Sindou,BF,10.67,-5.17,73.06,92,96,3.44,light rain
76,Chifeng,CN,42.27,118.96,63.54,63,35,7.16,scattered clouds
77,Khazar,RU,42.0,48.33,69.89,75,0,0.74,clear sky
78,Victoria,HK,22.29,114.16,84.0,79,14,5.99,light rain
79,Tasiilaq,GL,65.61,-37.64,33.75,87,100,1.74,overcast clouds
80,Hobyo,SO,5.35,48.53,76.53,77,97,26.84,overcast clouds
81,Lompoc,US,34.64,-120.46,71.01,68,1,16.11,clear sky
82,Portland,US,45.52,-122.68,88.0,37,20,4.34,smoke
83,Manzhouli,CN,49.6,117.43,55.78,84,97,9.53,overcast clouds
84,Ponta Do Sol,PT,32.67,-17.1,71.6,73,20,10.29,few clouds
85,Arraial Do Cabo,BR,-22.97,-42.03,77.0,65,0,10.29,clear sky
86,Ribeira Grande,PT,38.52,-28.7,71.65,78,14,23.17,few clouds
87,Zyryanka,RU,65.75,150.85,57.04,45,28,12.17,scattered clouds
88,Bethel,US,41.37,-73.41,75.99,49,1,3.36,clear sky
89,Teguise,ES,29.06,-13.56,73.4,78,20,10.29,few clouds
90,Hobart,AU,-42.88,147.33,55.4,54,75,4.7,broken clouds
91,Sidi Ali,DZ,36.1,0.42,67.23,85,0,5.12,clear sky
92,Vanimo,PG,-2.67,141.3,82.78,75,37,5.35,scattered clouds
93,Abu Kamal,SY,34.45,40.92,87.91,13,0,10.71,clear sky
94,Bonito,BR,-21.12,-56.48,79.32,32,36,3.0,scattered clouds
95,Vestmannaeyjar,IS,63.44,-20.27,45.12,62,33,21.25,scattered clouds
96,Barra Patuca,HN,15.8,-84.28,81.46,81,91,11.65,overcast clouds
97,Nikolskoye,RU,59.7,30.79,57.0,87,96,6.71,overcast clouds
98,Saskylakh,RU,71.92,114.08,42.06,92,100,15.79,light rain
99,Aktau,KZ,43.65,51.2,62.6,51,7,8.95,clear sky
100,San Jose,US,37.34,-121.89,86.0,42,75,8.05,smoke
101,Crestline,US,34.24,-117.29,105.8,14,5,11.41,haze
102,Shingu,JP,33.73,135.98,80.6,78,20,3.36,few clouds
103,Mount Gambier,AU,-37.83,140.77,51.8,87,3,8.05,clear sky
104,Wanning,CN,18.8,110.4,82.98,82,77,6.82,broken clouds
105,Touros,BR,-5.2,-35.46,73.4,88,20,3.36,few clouds
106,Erenhot,CN,43.65,111.98,63.19,41,0,2.21,clear sky
107,Thompson,CA,55.74,-97.86,55.4,50,75,13.87,light intensity shower rain
108,Makokou,GA,0.57,12.86,69.67,95,69,4.81,light rain
109,Mahebourg,MU,-20.41,57.7,66.2,82,40,11.41,scattered clouds
110,Clyde River,CA,70.47,-68.59,37.4,81,75,14.99,broken clouds
111,Trat,TH,12.5,102.5,87.01,63,100,1.03,overcast clouds
112,Iqaluit,CA,63.75,-68.51,44.6,52,75,2.24,broken clouds
113,Winnemucca,US,40.97,-117.74,102.2,5,1,9.17,clear sky
114,Faya,SA,18.39,42.45,66.2,34,0,3.58,clear sky
115,Vaini,TO,-21.2,-175.2,73.4,69,20,14.99,few clouds
116,Sinnamary,GF,5.38,-52.95,79.32,84,0,11.05,clear sky
117,Valparaiso,CL,-33.04,-71.63,53.6,81,75,5.82,broken clouds
118,Martapura,ID,-3.42,114.85,75.2,100,20,1.88,mist
119,Gornopravdinsk,RU,60.05,69.9,44.04,81,97,10.02,overcast clouds
120,Mogzon,RU,51.74,111.96,53.65,83,100,1.7,overcast clouds
121,Gumla,IN,23.05,84.55,73.62,86,4,2.17,clear sky
122,Cabo San Lucas,MX,22.89,-109.91,89.6,59,5,8.05,clear sky
123,Hays,US,30.05,-98.03,78.01,84,55,4.0,broken clouds
124,Kupang,ID,-10.17,123.58,80.6,57,20,6.93,few clouds
125,Itaituba,BR,-4.28,-55.98,82.72,38,64,1.54,broken clouds
126,Ulaangom,MN,49.98,92.07,54.0,71,6,3.8,clear sky
127,Cruzeiro Do Sul,BR,-29.51,-51.99,57.99,93,0,2.53,clear sky
128,Bluff,NZ,-46.6,168.33,52.11,70,1,12.48,clear sky
129,Mount Isa,AU,-20.73,139.5,75.2,23,0,9.17,clear sky
130,Quatre Cocos,MU,-20.21,57.76,66.2,82,40,11.41,scattered clouds
131,Dingle,PH,11.0,122.67,82.71,78,75,1.81,broken clouds
132,Limbang,MY,4.75,115.0,78.8,88,75,2.24,broken clouds
133,Komsomolskiy,UZ,40.43,71.72,66.2,48,0,6.93,clear sky
134,Perth,AU,-31.93,115.83,55.99,93,20,5.82,few clouds
135,Castro,BR,-24.79,-50.01,66.07,66,32,3.44,scattered clouds
136,Harper,LR,4.38,-7.72,75.52,87,66,10.2,broken clouds
137,Soyo,AO,-6.13,12.37,72.14,87,19,8.55,few clouds
138,Batticaloa,LK,7.71,81.69,80.17,81,81,6.67,broken clouds
139,Funehiki,JP,37.43,140.58,79.0,88,75,8.05,broken clouds
140,Khatanga,RU,71.97,102.5,41.79,77,96,9.22,overcast clouds
141,Narsaq,GL,60.92,-46.05,42.8,93,100,4.7,overcast clouds
142,Grand-Santi,GF,4.25,-54.38,75.78,86,57,2.39,broken clouds
143,Tiksi,RU,71.69,128.87,50.04,79,54,5.37,broken clouds
144,Kailua,US,21.4,-157.74,87.8,58,90,11.41,overcast clouds
145,Rockland,US,41.17,-74.05,77.0,67,8,5.3,clear sky
146,New Norfolk,AU,-42.78,147.06,54.0,62,41,5.01,scattered clouds
147,Huambo,AO,-12.78,15.74,58.69,42,3,1.63,clear sky
148,Tual,ID,-5.67,132.75,80.24,82,51,21.79,broken clouds
149,Bharatpur,IN,27.22,77.48,84.52,69,69,1.59,broken clouds
150,Sitka,US,57.05,-135.33,57.2,82,90,8.05,overcast clouds
151,Leningradskiy,RU,69.38,178.42,36.52,83,99,5.53,overcast clouds
152,Lorengau,PG,-2.02,147.27,85.78,68,63,5.77,broken clouds
153,Chivay,PE,-15.64,-71.6,51.67,36,77,5.46,broken clouds
154,Iraquara,BR,-12.25,-41.62,66.42,82,58,10.78,broken clouds
155,Rio Grande,BR,-32.03,-52.1,55.0,84,49,4.94,scattered clouds
156,Verkhoyansk,RU,67.54,133.38,59.31,66,100,8.79,overcast clouds
157,Pisco,PE,-13.7,-76.22,61.0,77,2,6.93,clear sky
158,Stonewall,CA,50.13,-97.33,66.2,37,20,19.46,few clouds
159,Velyka Mykhaylivka,UA,47.08,29.85,65.37,67,100,15.39,light rain
160,Mareeba,AU,-17.0,145.43,77.0,65,40,11.41,scattered clouds
161,Truth Or Consequences,US,33.13,-107.25,96.8,16,1,8.05,clear sky
162,Port Lincoln,AU,-34.73,135.87,57.7,73,0,4.36,clear sky
163,Serik,TR,36.92,31.1,78.8,74,0,5.82,clear sky
164,Pangnirtung,CA,66.15,-65.71,46.27,55,21,3.4,few clouds
165,Lakes Entrance,AU,-37.88,147.98,60.01,59,28,1.01,scattered clouds
166,Chokurdakh,RU,70.63,147.92,43.3,62,0,16.44,clear sky
167,Chicama,PE,-7.84,-79.15,61.54,79,8,6.11,clear sky
168,Kaitangata,NZ,-46.28,169.85,55.81,57,2,7.2,clear sky
169,Sangar,RU,63.92,127.47,55.24,75,78,11.07,broken clouds
170,Norman Wells,CA,65.28,-126.83,53.6,71,75,4.7,broken clouds
171,Timmins,CA,48.47,-81.33,57.2,62,75,6.93,broken clouds
172,Savelugu,GH,9.62,-0.83,75.16,93,91,4.9,moderate rain
173,Nemuro,JP,43.32,145.57,62.24,95,99,8.9,overcast clouds
174,Nanakuli,US,21.39,-158.15,87.8,55,40,10.29,scattered clouds
175,Buluang,PH,13.31,123.34,85.15,71,91,3.36,overcast clouds
176,Kleive,NO,62.8,7.64,51.8,87,62,6.93,broken clouds
177,Bayan,CN,46.08,127.4,68.0,71,90,19.84,overcast clouds
178,Ken Caryl,US,39.58,-105.12,90.0,17,0,1.99,clear sky
179,Scottsbluff,US,41.87,-103.67,89.6,17,1,9.17,clear sky
180,Constitucion,CL,-35.33,-72.42,49.01,82,46,1.97,scattered clouds
181,Kenai,US,60.55,-151.26,57.99,50,90,6.89,overcast clouds
182,Cidreira,BR,-30.18,-50.21,54.84,85,1,7.67,clear sky
183,Bilibino,RU,68.05,166.44,39.81,68,21,2.17,few clouds
184,Rundu,NA,-17.93,19.77,63.72,34,0,6.26,clear sky
185,Sorong,ID,-0.88,131.25,80.89,78,36,4.27,scattered clouds
186,Coihaique,CL,-45.58,-72.07,42.8,85,92,4.7,overcast clouds
187,Sorland,NO,67.67,12.69,54.93,85,33,13.15,scattered clouds
188,Baruun-Urt,MN,46.68,113.28,55.72,75,57,8.57,broken clouds
189,Carnarvon,AU,-24.87,113.63,62.6,100,0,10.29,clear sky
190,Male,MV,4.17,73.51,82.4,83,75,18.34,broken clouds
191,Iracoubo,GF,5.48,-53.2,79.41,84,0,11.54,clear sky
192,Ndende,GA,-2.4,11.36,73.4,83,74,2.1,broken clouds
193,Loiza,PR,18.43,-65.88,84.2,83,40,9.17,scattered clouds
194,Puerto Plata,DO,19.79,-70.69,79.0,94,40,6.31,scattered clouds
195,Namibe,AO,-15.2,12.15,62.04,74,1,2.75,clear sky
196,Raymondville,US,26.48,-97.78,87.8,74,1,3.36,clear sky
197,Loja,EC,-3.99,-79.2,55.76,88,15,4.05,few clouds
198,That Phanom,TH,16.94,104.71,78.8,94,20,3.02,few clouds
199,Vostok,RU,46.49,135.88,68.58,56,0,2.28,clear sky
200,Tzucacab,MX,20.07,-89.05,89.35,44,32,6.31,scattered clouds
201,Klaksvik,FO,62.23,-6.59,46.4,100,100,19.46,drizzle
202,Mogadishu,SO,2.04,45.34,76.39,76,42,18.32,scattered clouds
203,Brae,GB,60.4,-1.35,51.8,87,75,18.34,light intensity shower rain
204,Gusinoye Ozero,RU,51.11,106.26,58.98,69,91,3.4,overcast clouds
205,San Mateo Ixtatan,GT,15.83,-91.48,54.45,100,57,4.88,broken clouds
206,Eureka,US,40.8,-124.16,72.0,53,1,14.99,clear sky
207,Donghai,CN,22.95,115.64,81.14,80,2,4.12,clear sky
208,Penzance,GB,50.12,-5.54,55.99,93,51,8.05,broken clouds
209,Jalu,LY,29.03,21.55,79.72,43,0,11.05,clear sky
210,Maniitsoq,GL,65.42,-52.9,45.48,96,86,7.07,light rain
211,Kodiak,US,57.79,-152.41,55.4,66,1,6.93,clear sky
212,Lushoto,TZ,-4.78,38.28,54.41,99,0,2.68,clear sky
213,Tautira,PF,-17.73,-149.15,86.0,58,40,18.34,scattered clouds
214,Kruisfontein,ZA,-34.0,24.73,61.0,48,5,1.01,clear sky
215,Esperance,AU,-33.87,121.9,50.0,100,0,13.87,clear sky
216,East London,ZA,-33.02,27.91,66.33,72,0,20.74,clear sky
217,Hithadhoo,MV,-0.6,73.08,82.02,78,34,15.12,scattered clouds
218,Kavieng,PG,-2.57,150.8,83.93,75,100,14.81,moderate rain
219,Talnakh,RU,69.49,88.4,35.6,76,0,20.13,clear sky
220,Laguna,US,38.42,-121.42,96.01,30,1,3.36,clear sky
221,Fort Nelson,CA,58.81,-122.7,64.4,42,75,8.05,broken clouds
222,Bloemfontein,ZA,-29.12,26.21,57.2,71,0,3.36,clear sky
223,Kawalu,ID,-7.38,108.21,72.73,86,74,2.82,broken clouds
224,Naze,JP,28.37,129.48,78.8,94,75,23.04,shower rain
225,Medea,DZ,36.26,2.75,66.2,82,0,2.24,clear sky
226,Sompeta,IN,18.93,84.6,80.02,80,7,6.44,clear sky
227,Harer,ET,9.31,42.13,58.71,85,0,4.23,light rain
228,Praya,CV,14.92,-23.51,80.6,88,40,8.05,scattered clouds
229,San Patricio,MX,19.22,-104.7,89.6,75,40,17.22,scattered clouds
230,Port Elizabeth,ZA,-33.92,25.57,60.8,67,0,25.28,clear sky
231,Malanville,BJ,11.87,3.39,74.19,91,75,10.22,broken clouds
232,Tarut,SA,26.57,50.04,89.6,79,0,3.36,clear sky
233,Sibu,MY,2.3,111.82,75.2,94,40,2.24,moderate rain
234,Faaborg,DK,55.1,10.24,59.0,82,90,4.7,overcast clouds
235,San Vicente,AR,-26.62,-54.13,61.14,85,2,3.58,light rain
236,Beringovskiy,RU,63.05,179.32,46.54,70,100,15.14,overcast clouds
237,Taltal,CL,-25.4,-70.48,55.92,77,30,5.06,scattered clouds
238,Pando,UY,-34.72,-55.95,51.8,87,85,1.12,overcast clouds
239,Upernavik,GL,72.79,-56.15,34.75,81,5,12.64,clear sky
240,Bambous Virieux,MU,-20.34,57.76,66.2,82,40,11.41,scattered clouds
241,Sapa,PH,5.15,120.32,83.68,74,3,6.26,clear sky
242,Bahia Blanca,AR,-38.72,-62.27,50.05,46,95,3.6,overcast clouds
243,Sabang,ID,5.89,95.32,82.29,74,93,13.29,overcast clouds
244,Sao Sebastiao Do Paraiso,BR,-20.92,-46.99,68.22,38,18,4.9,few clouds
245,Birao,CF,10.28,22.79,71.15,96,91,4.34,overcast clouds
246,Vallenar,CL,-28.57,-70.76,59.88,51,0,1.72,clear sky
247,Hamilton,US,39.18,-84.53,75.2,44,20,8.05,few clouds
248,Paita,PE,-5.09,-81.11,62.85,80,1,16.08,clear sky
249,Grimshaw,CA,56.18,-117.6,68.0,45,75,17.22,broken clouds
250,Natal,BR,-5.79,-35.21,75.2,78,7,11.41,clear sky
251,Coquimbo,CL,-29.95,-71.34,53.6,81,90,6.93,overcast clouds
252,Tuatapere,NZ,-46.13,167.68,54.82,60,8,4.72,clear sky
253,Sao Joao Evangelista,BR,-18.55,-42.76,62.8,59,18,3.76,few clouds
254,Viedma,AR,-40.81,-63.0,44.06,62,87,7.31,overcast clouds
255,Sibolga,ID,1.74,98.78,75.22,84,100,2.73,overcast clouds
256,Vila Velha,BR,-20.33,-40.29,78.01,69,1,14.99,clear sky
257,Saint George,US,37.1,-113.58,107.6,5,1,6.93,clear sky
258,Mersing,MY,2.43,103.84,73.4,94,60,4.7,broken clouds
259,Kita,ML,13.03,-9.49,73.0,96,100,5.28,overcast clouds
260,San Lorenzo,PY,-25.33,-57.53,73.4,43,0,4.7,clear sky
261,Beckley,US,37.78,-81.19,71.6,73,20,8.05,few clouds
262,Namtsy,RU,62.72,129.67,53.6,76,31,4.47,scattered clouds
263,Kahului,US,20.89,-156.47,91.4,43,40,18.34,scattered clouds
264,Beitbridge,ZW,-22.22,30.0,63.18,71,0,13.8,clear sky
265,Bud,US,39.45,-86.18,72.0,40,1,4.7,clear sky
266,Walvis Bay,NA,-22.96,14.51,55.4,76,7,8.05,clear sky
267,Lata,PT,40.16,-8.33,66.99,60,0,2.91,clear sky
268,Saldanha,ZA,-33.01,17.94,55.4,93,51,6.93,broken clouds
269,Christchurch,NZ,-43.53,172.63,60.01,54,65,6.93,broken clouds
270,Takahashi,JP,34.78,133.62,80.01,88,75,3.36,broken clouds
271,Illora,ES,37.29,-3.88,68.0,60,0,1.12,clear sky
272,Zabol,AF,32.25,67.25,62.49,26,0,6.55,clear sky
273,Bure,ET,10.7,37.07,51.13,94,33,2.37,scattered clouds
274,Beberibe,BR,-4.18,-38.13,78.8,78,20,10.29,few clouds
275,Patea,NZ,-39.76,174.48,57.0,84,95,5.99,overcast clouds
276,Orikum,AL,40.33,19.47,72.12,65,0,7.54,clear sky
277,Gisborne,NZ,-38.65,178.0,56.82,45,24,3.31,few clouds
278,Aleksandrov Gay,RU,50.15,48.57,57.88,47,96,8.14,overcast clouds
279,Homer,US,59.64,-151.55,55.4,71,40,6.93,scattered clouds
280,Kirakira,SB,-10.45,161.92,82.62,76,47,12.88,scattered clouds
281,Salalah,OM,17.02,54.09,78.8,88,75,6.93,broken clouds
282,Surenavan,AM,39.75,44.8,69.8,43,0,6.93,clear sky
283,Aldan,RU,58.6,125.39,49.82,89,98,2.86,overcast clouds
284,Flin Flon,CA,54.77,-101.86,60.8,36,75,11.41,broken clouds
285,Kieta,PG,-6.22,155.63,84.83,66,12,6.87,few clouds
286,Ugoofaaru,MV,5.67,73.0,81.64,80,96,19.71,overcast clouds
287,Nanortalik,GL,60.14,-45.24,44.44,87,95,14.74,overcast clouds
288,Huarmey,PE,-10.07,-78.15,61.03,82,6,8.95,clear sky
289,Arkhangelskoye,RU,55.85,35.33,59.32,81,100,4.03,moderate rain
290,Port Macquarie,AU,-31.43,152.92,79.0,71,84,1.36,light rain
291,Laguna De Perlas,NI,12.34,-83.67,84.2,74,40,5.53,moderate rain
292,Srednekolymsk,RU,67.45,153.68,48.16,52,0,8.95,clear sky
293,Hanzhong,CN,33.07,107.03,69.57,75,89,1.34,overcast clouds
294,Auki,SB,-8.77,160.7,85.33,66,43,5.46,scattered clouds
295,Port Blair,IN,11.67,92.75,81.73,79,100,2.3,overcast clouds
296,Ilo,PE,-17.64,-71.34,58.37,80,7,3.65,clear sky
297,Yamada,JP,39.47,141.95,75.06,92,96,4.76,overcast clouds
298,Merauke,ID,-8.47,140.33,82.06,67,6,13.09,clear sky
299,College,US,64.86,-147.8,50.0,81,75,5.82,broken clouds
300,Plettenberg Bay,ZA,-34.05,23.37,57.69,80,26,7.52,scattered clouds
301,Hargeysa,SO,9.56,44.06,72.66,56,9,13.87,clear sky
302,Broome,US,42.25,-75.83,66.0,59,3,4.81,clear sky
303,Jabinyanah,TN,35.03,10.91,80.6,83,67,8.05,broken clouds
304,Nantucket,US,41.28,-70.1,71.6,83,1,9.17,clear sky
305,Lypova Dolyna,UA,50.56,33.8,62.83,86,100,5.93,light rain
306,Mastic,US,40.8,-72.84,78.8,47,1,4.7,clear sky
307,Porto Velho,BR,-8.76,-63.9,84.2,66,20,1.25,few clouds
308,Inhambane,MZ,-23.86,35.38,68.81,68,91,10.29,overcast clouds
309,Hazaribag,IN,23.98,85.35,74.44,87,13,1.39,few clouds
310,Kaeo,NZ,-35.1,173.78,60.01,3,7,7.0,clear sky
311,Ukiah,US,39.15,-123.21,96.8,18,1,8.05,clear sky
312,Bull Savanna,JM,17.89,-77.59,78.4,84,5,12.71,clear sky
313,Reconquista,AR,-29.15,-59.65,55.51,82,0,7.85,clear sky
314,Westlock,CA,54.15,-113.87,73.99,43,20,12.75,few clouds
315,Sinjar,IQ,36.32,41.88,83.37,15,0,6.4,clear sky
316,Neiafu,TO,-18.65,-173.98,77.0,57,20,9.17,few clouds
317,Kirkwall,GB,58.98,-2.96,50.0,93,90,13.87,light rain
318,Tilichiki,RU,60.47,166.1,47.43,56,0,13.56,clear sky
319,Ancud,CL,-41.87,-73.82,44.01,83,100,6.02,overcast clouds
320,Charters Towers,AU,-20.1,146.27,75.09,49,10,8.77,clear sky
321,Nishihara,JP,26.18,127.76,80.6,88,75,6.93,broken clouds
322,Whitianga,NZ,-36.83,175.7,62.01,70,12,7.0,few clouds
323,Norfolk,US,42.17,-71.25,73.99,49,0,10.29,clear sky
324,Kindu,CD,-2.95,25.95,72.21,81,1,1.97,clear sky
325,Staryy Krym,UA,45.03,35.1,66.25,86,87,9.06,overcast clouds
326,Bambanglipuro,ID,-7.95,110.28,77.95,76,46,10.11,scattered clouds
327,Chartres,FR,48.42,1.5,63.0,90,1,3.0,clear sky
328,Lagoa,PT,39.05,-27.98,70.39,76,24,22.39,few clouds
329,Novo Oriente,BR,-5.53,-40.77,76.96,38,28,3.91,scattered clouds
330,Tucurui,BR,-3.77,-49.67,79.79,50,88,1.63,overcast clouds
331,Taoudenni,ML,22.68,-3.98,90.59,43,99,16.64,overcast clouds
332,Mildura,AU,-34.2,142.15,59.0,71,90,6.93,overcast clouds
333,Hervey Bay,AU,-25.3,152.85,75.99,64,21,3.0,few clouds
334,Ranong,TH,9.97,98.63,75.2,100,20,1.12,few clouds
335,Chernyshevskiy,RU,63.01,112.47,54.19,93,59,2.73,broken clouds
336,Saint-Louis,SN,16.33,-15.0,84.2,70,40,8.28,thunderstorm
337,Luderitz,NA,-26.65,15.16,58.28,68,88,11.03,overcast clouds
338,Balaipungut,ID,1.05,101.28,73.4,94,20,1.34,few clouds
339,Twin Falls,US,42.56,-114.46,95.0,15,1,6.93,clear sky
340,Sao Filipe,CV,14.9,-24.5,79.83,84,97,18.97,moderate rain
341,Faanui,PF,-16.48,-151.75,78.1,77,66,16.26,broken clouds
342,Baykit,RU,61.67,96.37,54.91,88,98,0.78,overcast clouds
343,Hofn,IS,64.25,-15.21,46.18,61,24,15.68,few clouds
344,Banjar,ID,-8.19,114.97,78.8,100,75,3.36,broken clouds
345,Sistranda,NO,63.73,8.83,51.8,93,75,8.05,light intensity shower rain
346,San Quintin,MX,30.48,-115.95,77.54,62,43,11.81,scattered clouds
347,Ampanihy,MG,-24.7,44.75,58.03,77,5,13.33,clear sky
348,Ketchikan,US,55.34,-131.65,55.4,100,90,5.82,light rain
349,Barcelos,PT,41.54,-8.62,64.99,93,90,2.62,mist
350,Meadow Lake,US,34.8,-106.54,93.99,14,75,3.36,broken clouds
351,Plover,US,44.46,-89.54,66.0,42,1,10.29,clear sky
352,Sakakah,SA,29.97,40.21,84.2,11,63,5.82,broken clouds
353,Mange,SL,8.92,-12.85,73.29,95,82,1.95,light rain
354,Lengshuitan,CN,26.41,111.6,73.47,80,26,2.13,scattered clouds
355,Noumea,NC,-22.28,166.46,73.0,56,90,11.41,overcast clouds
356,Tyukhtet,RU,56.54,89.3,40.68,92,67,6.76,broken clouds
357,Vardo,NO,70.37,31.11,55.4,93,75,3.36,light rain
358,Havre-Saint-Pierre,CA,50.23,-63.6,57.2,67,1,20.8,clear sky
359,Ballina,AU,-28.87,153.57,72.0,60,40,5.82,scattered clouds
360,Moyale,KE,3.52,39.06,66.31,66,73,16.78,broken clouds
361,Yar-Sale,RU,66.83,70.83,38.41,93,10,9.75,clear sky
362,Kayes,ML,14.0,-11.0,74.3,95,100,6.67,light rain
363,Avera,US,33.19,-82.53,87.8,70,1,3.62,clear sky
364,Puerto Varas,CL,-41.32,-72.99,44.6,87,100,5.82,overcast clouds
365,Bereda,ES,43.27,-7.54,63.0,89,18,1.99,few clouds
366,Djibo,BF,14.1,-1.63,83.21,67,73,8.93,broken clouds
367,Bandarbeyla,SO,9.49,50.81,75.43,80,76,22.66,broken clouds
368,Gazojak,TM,41.19,61.4,70.02,24,25,8.23,scattered clouds
369,Saint-Paul,RE,-21.01,55.27,66.2,77,40,6.93,scattered clouds
370,Normandin,CA,48.83,-72.53,57.2,76,75,3.36,shower rain
371,Gamba,GA,-2.65,10.0,73.71,86,91,7.67,overcast clouds
372,Smithers,CA,54.78,-127.17,59.0,77,90,2.24,overcast clouds
373,Moisakula,EE,58.09,25.19,54.39,98,39,7.34,scattered clouds
374,Ullapool,GB,57.9,-5.16,50.0,90,99,5.99,moderate rain
375,Miranda,CO,3.25,-76.23,82.4,58,40,10.29,scattered clouds
376,Kidal,ML,18.44,1.41,88.74,40,75,11.61,broken clouds
377,Yiyang,CN,28.59,112.33,71.96,87,13,2.62,few clouds
378,Kolondieba,ML,11.09,-6.89,72.46,96,100,4.97,light rain
379,Goundam,ML,16.41,-3.67,89.44,49,76,8.23,broken clouds
380,Rincon,US,32.3,-81.24,95.0,41,20,6.93,few clouds
381,Sao Felix Do Xingu,BR,-6.64,-51.99,78.15,30,39,0.94,scattered clouds
382,Ahipara,NZ,-35.17,173.17,57.29,60,67,7.63,broken clouds
383,Diapaga,BF,12.07,1.79,73.26,94,86,6.4,overcast clouds
384,Santa Cruz De La Palma,ES,28.68,-17.76,75.2,78,90,9.17,overcast clouds
385,Chistogorskiy,RU,53.98,87.38,41.83,87,23,6.4,few clouds
386,Guerrero Negro,MX,27.98,-114.06,78.78,61,0,17.6,clear sky
387,Iskateley,RU,67.68,53.15,47.35,82,62,11.54,broken clouds
388,Marawi,PH,8.0,124.29,80.01,83,51,5.01,broken clouds
389,Padang,ID,-0.95,100.35,77.13,80,97,0.78,overcast clouds
390,Moron,AR,-34.65,-58.62,57.0,76,75,2.24,broken clouds
391,Rock Springs,US,41.59,-109.2,86.0,10,1,5.82,clear sky
392,Elizabeth City,US,36.29,-76.25,86.0,62,1,5.82,clear sky
393,Omboue,GA,-1.57,9.26,74.8,83,100,10.83,overcast clouds
394,Tecoanapa,MX,16.52,-98.75,78.53,90,89,10.16,overcast clouds
395,Peleduy,RU,59.63,112.74,61.57,64,3,2.62,clear sky
396,Tupik,RU,54.43,119.93,54.32,89,99,8.48,overcast clouds
397,Kosh-Agach,RU,50.0,88.67,39.88,78,30,6.46,scattered clouds
398,Grindavik,IS,63.84,-22.43,42.8,81,75,9.17,broken clouds
399,Springdale,US,36.19,-94.13,86.0,78,75,6.93,moderate rain
400,Thinadhoo,MV,0.53,72.93,82.45,79,25,17.81,moderate rain
401,Gushikawa,JP,26.35,127.87,78.8,88,1,8.05,light rain
402,Buraydah,SA,26.33,43.98,84.2,26,0,4.7,clear sky
403,Lufilufi,WS,-13.87,-171.6,84.2,74,75,5.82,broken clouds
404,Bima,ID,-8.47,118.72,81.82,69,9,3.87,clear sky
405,Meulaboh,ID,4.14,96.13,77.56,84,100,3.91,overcast clouds
406,Pangkalanbuun,ID,-2.68,111.62,77.58,93,99,2.91,light rain
407,Tomatlan,MX,19.93,-105.25,84.31,89,67,5.64,broken clouds
408,Bathsheba,BB,13.22,-59.52,80.6,83,40,6.93,scattered clouds
409,Caravelas,BR,-17.71,-39.25,71.26,88,24,4.25,few clouds
410,Tessalit,ML,20.2,1.01,84.78,46,67,8.9,broken clouds
411,Louga,RU,58.74,29.85,55.42,88,100,4.74,overcast clouds
412,Bainbridge,US,47.63,-122.52,84.0,37,75,3.36,broken clouds
413,Shache,CN,38.42,77.24,66.15,26,86,10.63,overcast clouds
414,Fairbanks,US,64.84,-147.72,51.01,76,75,12.75,broken clouds
415,Karratha,AU,-20.74,116.85,78.69,22,50,4.18,scattered clouds
416,Alofi,NU,-19.06,-169.92,72.82,73,81,16.89,broken clouds
417,Cockburn Town,TC,21.46,-71.14,83.52,77,26,18.59,scattered clouds
418,Broken Hill,AU,-31.95,141.43,60.8,41,0,2.24,clear sky
419,Dondo,MZ,-19.61,34.74,71.6,73,40,13.87,scattered clouds
420,Tambopata,PE,-12.73,-69.18,79.21,62,42,2.53,scattered clouds
421,Dumas,US,35.87,-101.97,91.0,31,1,9.17,clear sky
422,Constantine,DZ,36.37,6.61,66.2,72,20,2.24,few clouds
423,Owando,CG,-0.48,15.9,73.11,86,9,3.11,clear sky
424,Shimoda,JP,34.67,138.95,82.99,83,40,11.41,scattered clouds
425,Hall,US,34.32,-83.78,87.8,52,1,8.05,clear sky
426,Aquiraz,BR,-3.9,-38.39,78.8,78,20,10.29,few clouds
427,Aripuana,BR,-9.17,-60.63,83.19,45,56,2.62,broken clouds
428,Isangel,VU,-19.55,169.27,71.6,73,90,5.82,overcast clouds
429,Atbasar,KZ,51.8,68.33,46.63,74,100,5.99,overcast clouds
430,Marsh Harbour,BS,26.54,-77.06,84.31,74,15,11.7,few clouds
431,Panjab,AF,34.39,67.02,40.89,63,0,3.42,clear sky
432,Save,BJ,8.04,2.49,72.25,95,100,4.72,overcast clouds
433,Biak,ID,-0.91,122.88,79.97,77,46,6.15,scattered clouds
434,Shelburne,CA,44.08,-80.2,64.4,48,1,6.93,clear sky
435,Mahenge,TZ,-8.68,36.72,60.89,90,1,1.79,clear sky
436,Teknaf,BD,20.86,92.31,80.06,85,78,2.73,broken clouds
437,Katsuura,JP,35.13,140.3,82.99,83,20,9.17,few clouds
438,Nykoping,SE,58.75,17.01,53.6,76,91,8.05,overcast clouds
439,Tondano,ID,1.3,124.91,80.6,83,20,2.24,few clouds
440,Visnes,NO,59.36,5.22,57.2,76,96,21.92,light rain
441,Belokurikha,RU,52.0,84.99,41.27,82,30,6.22,scattered clouds
442,Labuhan,ID,-6.88,112.21,78.12,77,36,10.78,scattered clouds
443,Husavik,IS,66.04,-17.34,39.2,69,62,3.36,broken clouds
444,Dhamrai,BD,23.92,90.21,86.0,74,40,5.82,haze
445,Lukoyanov,RU,55.03,44.48,50.54,89,99,5.68,overcast clouds
446,Batsfjord,NO,70.63,29.72,55.4,93,75,3.36,broken clouds
447,Tafresh,IR,34.69,50.01,58.15,31,58,3.42,broken clouds
448,Synya,RU,65.37,58.04,43.5,94,9,3.91,clear sky
449,Cocachacra,PE,-17.09,-71.76,59.23,75,11,3.02,few clouds
450,Sechura,PE,-5.56,-80.82,63.61,75,4,16.93,clear sky
451,Nueve De Julio,AR,-35.44,-60.88,54.0,61,58,1.01,broken clouds
452,Biltine,TD,14.53,20.92,79.18,56,100,5.3,overcast clouds
453,Mbandaka,CD,0.05,18.26,72.55,78,0,3.76,clear sky
454,Gao,ML,16.64,1.64,89.55,47,88,2.55,overcast clouds
455,Francistown,BW,-21.17,27.51,58.66,68,0,8.7,clear sky
456,Geraldton,AU,-28.77,114.6,46.4,100,0,6.93,clear sky
457,Hailey,US,43.52,-114.32,87.01,25,5,8.05,clear sky
458,Villefranche-Sur-Saone,FR,45.98,4.72,71.6,49,0,5.82,clear sky
459,Ziro,IN,27.63,93.83,57.24,100,100,0.69,overcast clouds
460,Mahibadhoo,MV,3.78,72.97,82.33,77,69,20.27,broken clouds
461,Roma,US,43.21,-75.46,66.2,52,1,5.82,clear sky
462,Rorvik,NO,64.86,11.24,55.2,80,96,9.82,light rain
463,North Platte,US,41.12,-100.77,91.4,21,1,8.05,clear sky
464,Gornje Zivinice,BA,44.43,18.62,50.0,93,0,2.8,clear sky
465,Tazlau,RO,46.72,26.47,60.8,77,0,10.29,light rain
466,Zlitan,LY,32.47,14.57,77.43,85,0,12.64,clear sky
467,Niquero,CU,20.04,-77.58,82.44,75,33,6.98,light rain
468,San Pedro,PH,14.35,121.02,82.4,88,55,2.24,broken clouds
469,Saint-Philippe,RE,-21.36,55.77,64.4,82,90,9.17,overcast clouds
470,Nelson Bay,AU,-32.72,152.15,68.0,68,38,12.75,scattered clouds
471,Sao Sebastiao,BR,-23.76,-45.41,69.49,87,69,3.74,broken clouds
472,Umba,RU,66.69,34.34,54.99,92,11,11.03,few clouds
473,Davod,HU,45.99,18.92,57.2,87,2,4.7,clear sky
474,Dubrovnik,HR,42.65,18.09,71.6,40,0,23.04,clear sky
475,Casper,US,42.87,-106.31,90.0,11,1,9.17,clear sky
476,Bara,NG,10.37,10.73,74.23,89,100,3.69,light rain
477,Atikokan,CA,48.76,-91.62,56.68,60,25,5.86,scattered clouds
478,Alice Springs,AU,-23.7,133.88,66.2,24,4,25.28,clear sky
479,Port Augusta,AU,-32.5,137.77,60.01,67,0,5.82,clear sky
480,Bengkulu,ID,-3.8,102.27,75.42,89,95,5.3,overcast clouds
481,Port Pirie,AU,-33.18,138.02,57.2,67,0,5.82,clear sky
482,Raga,SS,8.46,25.68,69.17,96,87,3.69,overcast clouds
483,Leeton,AU,-34.57,146.4,57.0,71,7,9.17,clear sky
484,Half Moon Bay,US,37.46,-122.43,79.0,72,1,16.11,haze
485,Yerbogachen,RU,61.28,108.01,58.03,92,65,4.63,light rain
486,Nam Som,TH,17.77,102.19,77.0,100,75,4.7,broken clouds
487,Assare,BR,-6.87,-39.88,76.06,40,20,5.08,few clouds
488,Inuvik,CA,68.35,-133.72,53.6,46,20,11.41,few clouds
489,Qui Nhon,VN,13.77,109.23,81.93,77,76,3.18,broken clouds
490,Pemberton,CA,50.32,-122.8,78.01,44,90,4.7,overcast clouds
491,Calbuco,CL,-41.77,-73.13,44.6,87,100,5.82,overcast clouds
492,Pacific Grove,US,36.62,-121.92,75.0,56,1,10.29,clear sky
493,Tuy Hoa,VN,13.08,109.3,81.07,79,65,4.05,broken clouds
494,Ngunguru,NZ,-35.62,174.5,60.01,3,11,7.0,few clouds
495,Kanker,IN,20.27,81.49,75.07,85,66,1.52,broken clouds
496,Northam,GB,51.03,-4.22,57.99,85,30,8.99,scattered clouds
497,Kasongo-Lunda,CD,-6.47,16.82,76.14,60,7,1.14,clear sky
498,Kabare,CD,-2.47,28.82,63.75,68,27,0.98,scattered clouds
499,Udachnyy,RU,66.42,112.4,46.4,81,0,4.47,clear sky
500,Moshi,TZ,-3.35,37.33,65.01,76,12,1.57,few clouds
501,Zapolyarnyy,RU,69.42,30.81,55.4,100,75,20.8,broken clouds
502,Bad Aussee,AT,47.61,13.78,55.0,99,7,3.78,clear sky
503,Mayo,US,38.89,-76.51,82.4,78,90,3.13,overcast clouds
504,Chapais,CA,49.78,-74.85,53.6,62,20,6.93,few clouds
505,Krasnoselkup,RU,65.7,82.47,44.28,78,71,17.87,broken clouds
506,Mastic Beach,US,40.77,-72.85,78.8,47,1,4.7,clear sky
507,Severodvinsk,RU,64.56,39.83,57.2,93,75,4.47,broken clouds
508,Magadan,RU,59.57,150.8,52.95,82,100,5.14,overcast clouds
509,Opuwo,NA,-18.06,13.84,66.16,55,78,5.59,broken clouds
510,Yarada,IN,17.65,83.27,80.6,94,40,2.24,mist
511,Cairns,AU,-16.92,145.77,77.0,65,40,11.41,scattered clouds
512,Marsa Matruh,EG,31.35,27.25,78.8,83,0,6.93,clear sky
513,Rotterdam,NL,51.92,4.48,64.0,82,40,8.05,scattered clouds
514,Takoradi,GH,4.88,-1.76,74.59,90,79,9.35,broken clouds
515,Zwedru,LR,6.07,-8.13,70.95,98,100,2.44,light rain
516,Yaan,NG,7.38,8.57,72.1,98,100,7.83,light rain
517,Puerto Escondido,MX,15.85,-97.07,79.32,82,93,4.83,overcast clouds
518,Palmer,US,42.16,-72.33,73.4,43,40,4.7,scattered clouds
519,Dunedin,NZ,-45.87,170.5,55.6,56,0,0.6,clear sky
520,Te Anau,NZ,-45.42,167.72,52.7,62,14,6.53,few clouds
521,Hami,CN,42.8,93.45,69.37,39,0,10.22,clear sky
522,Metro,ID,-5.11,105.31,76.24,86,78,5.55,broken clouds
523,Otane,NZ,-39.88,176.63,54.0,77,2,11.01,light rain
524,Baneh,IR,36.0,45.89,60.76,56,0,6.4,clear sky
525,Manado,ID,1.49,124.85,80.6,83,20,2.24,few clouds
526,Pushkinskiye Gory,RU,57.02,28.91,52.74,88,71,4.97,broken clouds
527,Sakaiminato,JP,35.55,133.23,78.8,83,75,2.24,broken clouds
528,Kamaishi,JP,39.27,141.88,77.0,88,75,6.93,thunderstorm
529,Betsiamites,CA,48.94,-68.65,64.4,76,75,12.75,broken clouds
530,Bahia Honda,CU,22.9,-83.16,81.1,83,89,12.17,overcast clouds
531,Maarianhamina,AX,60.1,19.93,60.8,72,17,8.05,few clouds
532,Arman,RU,59.7,150.17,55.08,77,100,5.59,overcast clouds
533,Svetlaya,RU,46.54,138.33,70.61,65,9,3.85,clear sky
534,Koulikoro,ML,14.0,-7.75,74.35,88,59,7.74,broken clouds
535,Nyagan,RU,62.14,65.39,38.95,90,0,7.2,clear sky
536,Cloquet,US,46.72,-92.46,63.0,63,40,5.82,scattered clouds
537,Kihei,US,20.79,-156.47,91.4,43,40,18.34,scattered clouds
538,Varca,IN,15.22,73.92,78.58,85,26,3.51,light rain
539,Chara,RU,56.91,118.26,59.83,58,66,4.97,broken clouds
540,Verkh-Chebula,RU,56.03,87.62,41.86,88,1,10.4,clear sky
541,Tandil,AR,-37.32,-59.13,46.99,60,28,1.01,scattered clouds
542,Tarko-Sale,RU,64.92,77.78,39.0,85,17,23.0,few clouds
543,Stromness,GB,58.97,-3.3,50.0,93,83,13.87,broken clouds
544,Ornskoldsvik,SE,63.29,18.72,55.4,100,34,3.36,scattered clouds
545,Morehead,US,37.27,-87.18,78.8,53,1,6.62,clear sky
546,Santarem,BR,-2.44,-54.71,82.4,83,70,4.7,broken clouds
547,Madrid,ES,40.42,-3.7,75.99,43,0,6.29,clear sky
548,Miri,MY,4.41,114.01,77.0,100,40,4.7,scattered clouds
549,Edinburg,GB,55.95,-3.2,52.0,87,2,14.99,clear sky
550,Salisbury,GB,51.07,-1.8,55.4,87,96,10.29,overcast clouds
551,Coroata,BR,-4.13,-44.12,78.46,58,7,1.92,clear sky
552,Egvekinot,RU,66.32,-179.17,41.27,67,21,2.33,few clouds
553,Peski,RU,55.22,38.76,57.2,76,100,6.71,light rain
554,Iwanai,JP,42.97,140.51,80.2,81,100,1.12,overcast clouds
555,Terrace,CA,54.52,-128.6,60.8,82,90,4.7,shower rain
556,Clovis,US,36.83,-119.7,98.6,22,40,8.05,smoke
557,Sergeyevka,KZ,53.88,67.42,43.86,89,90,6.89,overcast clouds
558,Bastia,FR,42.67,9.33,70.0,88,0,3.36,clear sky
559,Mayumba,GA,-3.43,10.66,73.26,87,73,5.37,broken clouds
560,Khuzhir,RU,53.19,107.34,55.38,76,47,6.15,scattered clouds
561,Copiapo,CL,-27.37,-70.33,53.6,76,90,10.29,overcast clouds
562,Tevaitoa,PF,-16.78,-151.5,78.55,75,58,15.3,broken clouds
563,Okha,RU,53.57,142.95,62.37,93,76,12.26,broken clouds
564,Ottumwa,US,41.02,-92.41,80.6,32,1,9.17,clear sky
565,Hede,CN,33.77,120.25,74.14,73,0,8.66,clear sky
566,Kerchevskiy,RU,59.95,56.29,44.01,96,4,3.74,clear sky
567,Gewane,ET,10.17,40.65,76.78,59,0,8.23,clear sky
568,Kollam,IN,8.88,76.6,80.6,94,40,3.36,mist
569,Knysna,ZA,-34.04,23.05,57.2,82,36,4.7,scattered clouds
570,Henties Bay,NA,-22.12,14.28,55.0,87,1,10.83,clear sky
571,Haines Junction,CA,60.75,-137.51,53.94,44,55,5.7,broken clouds
572,Malanje,AO,-9.54,16.34,70.32,75,11,4.7,few clouds
573,Batabano,CU,22.72,-82.29,78.8,94,75,2.24,broken clouds
574,Mehamn,NO,71.04,27.85,55.27,85,81,11.48,broken clouds
575,Barraute,CA,48.43,-77.63,57.2,67,75,6.93,shower rain
576,Esso,RU,55.93,158.7,53.46,41,58,3.51,broken clouds
577,Turka,UA,49.15,23.03,57.99,69,61,5.99,broken clouds
578,Hasaki,JP,35.73,140.83,82.0,88,40,11.41,scattered clouds
579,Yeppoon,AU,-23.13,150.73,71.6,68,7,6.93,clear sky
580,Balud,PH,10.15,123.7,84.2,83,75,3.36,broken clouds
581,Forestville,US,38.85,-76.88,82.99,74,40,11.41,scattered clouds
582,Ivanovka,KG,42.89,75.08,57.2,82,20,4.47,few clouds
583,Resistencia,AR,-27.46,-58.98,68.0,42,0,10.29,clear sky
584,Xining,CN,36.62,101.77,51.94,73,100,4.7,overcast clouds
585,Muros,ES,42.78,-9.06,66.0,83,6,8.12,clear sky
586,Cayenne,GF,4.93,-52.33,80.6,83,0,4.7,clear sky
587,Ambilobe,MG,-13.2,49.05,69.01,88,97,2.59,light rain
588,Rio Gallegos,AR,-51.62,-69.22,39.2,93,75,5.82,broken clouds
589,Pyaozerskiy,RU,65.83,31.17,55.56,90,54,9.1,broken clouds
590,Simplicio Mendes,BR,-7.85,-41.91,77.81,35,41,5.57,scattered clouds
591,Batagay-Alyta,RU,67.8,130.41,52.45,60,84,2.68,broken clouds
592,Warman,CA,52.32,-106.57,72.0,40,75,4.7,broken clouds
593,Russell,US,32.35,-85.2,95.0,46,1,3.36,clear sky
594,Susurluk,TR,39.91,28.16,69.8,77,20,9.17,few clouds
595,Atar,MR,20.52,-13.05,95.34,30,47,8.37,scattered clouds
596,Ucluelet,CA,48.93,-125.55,57.2,93,90,8.05,mist
597,Severobaykalsk,RU,55.65,109.32,56.53,70,100,2.37,overcast clouds
598,Araceli,PH,10.55,119.99,83.37,79,100,6.6,overcast clouds
599,Xinqing,CN,48.23,129.5,65.97,61,68,12.93,broken clouds
600,Banagher,IE,53.19,-7.99,53.01,83,47,5.01,scattered clouds
601,Dwarka,IN,22.24,68.97,81.84,78,6,7.74,clear sky
602,Ust-Omchug,RU,61.15,149.63,53.69,66,100,7.29,overcast clouds
603,Methoni,GR,36.82,21.7,79.0,68,0,4.7,clear sky
604,Romblon,PH,12.58,122.27,84.38,70,85,2.84,overcast clouds
605,Flinders,AU,-34.58,150.86,64.99,50,13,7.0,few clouds
606,Balabac,PH,7.99,117.06,84.88,69,30,5.99,scattered clouds
607,Teluknaga,ID,-6.1,106.64,82.0,83,40,2.24,haze
608,Destin,US,30.39,-86.5,87.8,66,40,3.36,scattered clouds
609,Nepomuceno,BR,-21.24,-45.24,69.37,40,8,6.53,clear sky
610,Dalian,CN,38.91,121.6,78.01,78,40,8.95,scattered clouds
611,Phetchabun,TH,16.25,101.08,84.0,100,20,2.75,few clouds
612,Kargasok,RU,59.06,80.86,45.43,95,100,9.57,moderate rain
613,Tulun,RU,54.56,100.58,59.05,91,100,5.68,overcast clouds
614,Naron,ES,43.52,-8.15,66.99,91,15,3.0,few clouds
615,Cedar City,US,37.68,-113.06,95.0,3,1,8.05,clear sky
616,Kapit,MY,2.02,112.93,76.01,94,100,1.77,overcast clouds
617,Kopervik,NO,59.28,5.31,57.2,76,96,21.92,moderate rain
618,Coruripe,BR,-10.13,-36.18,72.54,79,33,9.37,scattered clouds
619,Tabas,IR,33.6,56.92,77.0,15,0,6.93,clear sky
620,Ajdabiya,LY,30.76,20.23,75.97,58,0,8.99,clear sky
621,Oum Hadjer,TD,13.3,19.7,76.82,72,100,8.72,light rain
622,San Juan Del Sur,NI,11.25,-85.87,80.6,88,40,6.42,scattered clouds
623,Tukrah,LY,32.53,20.58,77.95,71,0,16.26,clear sky
624,Mercedes,AR,-34.65,-59.43,55.99,46,97,1.99,overcast clouds
625,Andenes,NO,69.31,16.12,53.6,93,90,4.7,drizzle
626,Dowa,MW,-13.65,33.94,49.17,95,0,3.62,clear sky
627,Agadir,MA,30.42,-9.6,68.0,82,0,3.36,clear sky
628,Anadyr,RU,64.75,177.48,48.2,61,40,4.47,scattered clouds
629,Kondinskoye,RU,59.65,67.41,44.22,78,87,10.94,overcast clouds
630,Wajir,KE,1.75,40.06,71.92,69,56,15.14,broken clouds
631,Mahuva,IN,21.09,71.76,82.02,81,37,6.51,scattered clouds
632,Sao Joao Da Barra,BR,-21.64,-41.05,73.62,80,8,17.56,clear sky
633,Gazanjyk,TM,39.24,55.52,73.85,22,82,1.81,broken clouds
634,Ocampo,MX,21.65,-101.5,64.71,63,21,23.11,few clouds
635,Xianshuigu,CN,38.98,117.38,69.8,73,13,2.24,few clouds
636,Qaqortoq,GL,60.72,-46.03,42.8,93,100,4.7,overcast clouds
637,Axim,GH,4.87,-2.24,74.89,87,74,9.08,broken clouds
638,Strathroy,CA,42.96,-81.62,64.99,63,0,8.48,clear sky
639,Port Hardy,CA,50.7,-127.42,60.8,87,75,4.7,broken clouds
640,Gualan,GT,15.13,-89.37,78.73,82,91,2.8,overcast clouds
641,Kloulklubed,PW,7.04,134.26,78.8,94,75,4.7,broken clouds
642,Staryy Nadym,RU,65.61,72.68,39.45,91,0,15.14,clear sky
643,Petropavlovsk-Kamchatskiy,RU,53.05,158.65,57.2,82,20,4.47,few clouds
644,Mount Pleasant,US,32.79,-79.86,90.0,84,1,9.82,clear sky
645,Ponta Delgada,PT,37.73,-25.67,69.8,94,75,10.29,broken clouds
646,Jefferson City,US,38.58,-92.17,80.6,42,1,3.36,clear sky
647,Maxixe,MZ,-23.86,35.35,68.2,68,91,8.95,overcast clouds
648,Bakchar,RU,57.02,82.07,43.12,97,53,4.14,broken clouds
649,Velten,DE,52.68,13.18,64.4,88,40,4.7,scattered clouds
650,Tateyama,JP,34.98,139.87,89.01,83,40,11.41,scattered clouds
651,Basco,PH,20.45,121.97,83.46,81,3,13.11,clear sky
652,Luwuk,ID,-0.95,122.79,81.41,73,42,5.14,scattered clouds
653,Ixtapa,MX,20.7,-105.2,91.4,66,40,9.17,scattered clouds
654,Otuzco,PE,-7.9,-78.58,53.47,70,51,0.47,broken clouds
655,Dwarahat,IN,29.78,79.43,64.94,95,52,1.88,broken clouds
656,Dimayon,PH,8.07,124.15,76.95,80,45,2.71,scattered clouds
657,Idrinskoye,RU,54.37,92.14,50.47,90,100,3.49,light rain
658,Nouadhibou,MR,20.93,-17.03,75.2,88,6,12.75,clear sky
659,Noyabrsk,RU,63.2,75.45,40.95,79,26,18.59,scattered clouds
660,Cap Malheureux,MU,-19.98,57.61,66.2,82,40,11.41,scattered clouds
661,Lithgow,AU,-33.48,150.15,48.99,70,44,1.01,scattered clouds
662,San Rafael,AR,-34.62,-68.33,55.78,37,23,7.31,few clouds
663,Emilio Carranza,MX,19.97,-96.61,81.86,71,99,8.28,overcast clouds
664,New Richmond,US,45.12,-92.54,68.0,48,40,5.48,scattered clouds
665,Nouakchott,MR,18.09,-15.98,78.8,94,99,1.12,overcast clouds
666,Hachinohe,JP,40.5,141.5,71.6,100,90,6.93,light rain
667,Varadero,CU,23.15,-81.25,84.2,79,20,13.87,few clouds
668,Chake Chake,TZ,-5.25,39.77,73.11,87,6,7.99,clear sky
669,Pimenta Bueno,BR,-11.67,-61.19,87.17,25,48,1.97,scattered clouds
670,Carballo,ES,43.21,-8.69,66.2,93,20,3.36,few clouds
671,El Burrion,MX,25.53,-108.4,100.0,55,60,8.01,broken clouds
672,Nuevo Progreso,MX,23.17,-97.95,88.0,59,96,1.99,overcast clouds
673,San Policarpo,PH,12.18,125.51,83.16,75,80,4.18,broken clouds
674,Rawah,IQ,34.48,41.91,86.67,14,0,6.8,clear sky
675,High Rock,BS,26.62,-78.28,86.0,84,75,10.29,broken clouds
676,Menongue,AO,-14.66,17.69,59.59,35,1,3.6,clear sky
677,Kandrian,PG,-6.22,149.55,81.73,81,48,12.59,light rain
678,Pilot Butte,CA,50.47,-104.42,73.4,31,20,14.99,few clouds
679,Ilulissat,GL,69.22,-51.1,41.0,80,100,8.05,light rain
680,Zabaykalsk,RU,49.63,117.32,54.72,87,99,9.28,overcast clouds
681,Balkhash,KZ,46.84,74.98,53.08,48,1,13.91,clear sky
682,Tymovskoye,RU,50.85,142.66,68.99,76,84,9.1,broken clouds
683,Novyy Urgal,RU,51.07,132.56,66.6,69,26,10.96,scattered clouds
684,Sovetskiy,RU,61.36,63.58,39.07,88,0,5.68,clear sky
685,Ano Mera,GR,37.45,25.4,77.0,57,0,14.99,clear sky
686,Saint Anthony,US,45.02,-93.22,73.99,35,40,4.56,scattered clouds
687,Vila Franca Do Campo,PT,37.72,-25.43,69.8,94,75,10.29,broken clouds
688,Okhotsk,RU,59.38,143.3,52.41,87,100,7.02,light rain
689,Yumen,CN,40.28,97.2,65.77,34,97,13.2,overcast clouds
690,Angoche,MZ,-16.23,39.91,71.13,69,73,12.91,broken clouds
691,Awjilah,LY,29.11,21.29,79.68,42,0,10.22,clear sky
692,Laramie,US,41.31,-105.59,82.4,8,1,8.05,clear sky
693,Bismarck,US,46.81,-100.78,75.2,36,1,11.41,clear sky
694,Esna,EG,25.29,32.55,89.6,25,46,4.7,scattered clouds
695,Vasto,IT,42.12,14.71,62.6,77,0,4.7,clear sky
696,Santiago Del Estero,AR,-27.8,-64.26,67.12,39,0,12.39,clear sky
697,Lososina,RU,49.0,140.31,69.91,75,23,4.43,few clouds
698,Yunyang,CN,33.45,112.71,72.23,73,47,5.86,scattered clouds
699,Altay,CN,47.87,88.12,53.08,73,82,4.68,broken clouds
700,Tiruvallur,IN,13.15,79.92,80.6,88,40,1.72,scattered clouds
701,Brigantine,US,39.41,-74.36,80.6,69,40,6.93,scattered clouds
702,Meiringen,CH,46.73,8.18,55.4,100,0,4.7,clear sky
